{"type":"FeatureCollection","features":[{"type":"Feature","properties":{"NAME":"Nawaloka Hospital"},"geometry":{"type":"Point","coordinates":[79.85350370407104,6.92073942701496]}},{"type":"Feature","properties":{"NAME":"Durdans Hospital"},"geometry":{"type":"Point","coordinates":[79.85349297523499,6.901866074309719]}},{"type":"Feature","properties":{"NAME":"New Delmon Hospital"},"geometry":{"type":"Point","coordinates":[79.86185073852539,6.870833111408715]}},{"type":"Feature","properties":{"NAME":"Royal Hospital"},"geometry":{"type":"Point","coordinates":[79.86384630203247,6.8761749518373]}},{"type":"Feature","properties":{"NAME":"Colombo South Teaching Hospital"},"geometry":{"type":"Point","coordinates":[79.87627029418945,6.867781365063325]}},{"type":"Feature","properties":{"NAME":"Dehiwala Medical Centre"},"geometry":{"type":"Point","coordinates":[79.86648559570312,6.860900217708258]}},{"type":"Feature","properties":{"NAME":"Suvika Fertility Centre"},"geometry":{"type":"Point","coordinates":[79.8870849609375,6.8794769567645675]}},{"type":"Feature","properties":{"NAME":"Apeksha Cancer Hospital Maharagama"},"geometry":{"type":"Point","coordinates":[79.9200439453125,6.837720885069909]}},{"type":"Feature","properties":{"NAME":"De Soysa Hospital"},"geometry":{"type":"Point","coordinates":[79.87764358520508,6.784199607425487]}},{"type":"Feature","properties":{"NAME":"National Hospital"},"geometry":{"type":"Point","coordinates":[79.86830949783325,6.918396275226547]}},{"type":"Feature","properties":{"NAME":"Lady Ridgeway Hospital for Children"},"geometry":{"type":"Point","coordinates":[79.87732172012329,6.917480312729857]}},{"type":"Feature","properties":{"NAME":"Prison Hospital"},"geometry":{"type":"Point","coordinates":[79.88043308258055,6.922848253679951]}},{"type":"Feature","properties":{"NAME":"Castle stree Hospital"},"geometry":{"type":"Point","coordinates":[79.88485336303711,6.9100247379763]}},{"type":"Feature","properties":{"NAME":"Rajagiriya Ayurvedic Hospital"},"geometry":{"type":"Point","coordinates":[79.88850116729736,6.911686276250171]}},{"type":"Feature","properties":{"NAME":"Lanka Hospital"},"geometry":{"type":"Point","coordinates":[79.8757553100586,6.8896597692723045]}},{"type":"Feature","properties":{"NAME":"National Institute of Infectious Diseases"},"geometry":{"type":"Point","coordinates":[79.91867065429688,6.92331688054801]}},{"type":"Feature","properties":{"NAME":"Angoda Mental Hospital"},"geometry":{"type":"Point","coordinates":[79.92600917816162,6.926469449198182]}},{"type":"Feature","properties":{"NAME":"Ragama Teaching Hospital"},"geometry":{"type":"Point","coordinates":[79.92461442947388,7.029534000664594]}},{"type":"Feature","properties":{"NAME":"Medical Center"},"geometry":{"type":"Point","coordinates":[79.91437911987305,6.976481699513604]}}]}